,City,Cloudiness,Country,Date,Humidity,Lat,Lng,Max Temp,Wind Speed
0,Gīdam,19,IN,1602134856,64,18.98,81.4,88.65,2.04
1,Arrondissement de Mayenne,90,FR,1602134856,93,48.33,-0.67,59.0,9.17
2,Souillac,40,MU,1602134512,74,-20.52,57.52,78.8,18.34
3,Acaraú,69,BR,1602134856,88,-2.89,-40.12,75.96,11.45
4,Ushuaia,75,AR,1602134423,89,-54.8,-68.3,39.2,4.85
5,Sarangani,100,PH,1602134857,72,5.4,125.46,83.88,8.1
6,Nanyang,80,CN,1602134857,51,32.99,112.53,69.12,8.61
7,Husavik,90,IS,1602134707,100,66.04,-17.34,35.6,4.7
8,Rikitea,100,PF,1602134423,82,-23.12,-134.97,73.29,14.74
9,Emerald,0,AU,1602134857,27,-23.53,148.17,89.6,9.17
10,Hong Kong,4,HK,1602134318,62,22.29,114.16,81.0,3.0
11,Praia,75,CV,1602134285,83,14.92,-23.51,78.8,10.29
12,Jamestown,1,US,1602134426,75,42.1,-79.24,48.99,8.05
13,Yellowknife,90,CA,1602134438,100,62.46,-114.35,37.4,4.7
14,Bluff,31,NZ,1602134430,62,-46.6,168.33,48.99,8.99
15,Celestún,100,MX,1602134278,85,20.87,-90.4,80.62,20.78
16,Lavrentiya,100,RU,1602134738,94,65.58,-171.0,40.5,28.86
17,Prince Rupert,1,CA,1602134802,93,54.32,-130.32,42.8,1.05
18,Bengkulu,100,ID,1602134318,92,-3.8,102.27,76.17,20.87
19,Mataura,37,NZ,1602134433,62,-46.19,168.86,48.99,8.99
20,Qaanaaq,0,GL,1602134423,76,77.48,-69.36,11.8,5.32
21,Neturhāt,16,IN,1602134860,78,23.48,84.27,78.57,3.42
22,Avarua,69,CK,1602134180,78,-21.21,-159.78,75.2,16.11
23,Turukhansk,91,RU,1602134860,94,65.82,87.98,22.98,4.43
24,Vao,53,NC,1602134861,82,-22.67,167.48,71.29,20.22
25,Lüderitz,1,NA,1602134674,84,-26.65,15.16,57.18,14.88
26,Vaini,75,TO,1602134444,88,-21.2,-175.2,77.0,9.17
27,Ilulissat,9,GL,1602134225,62,69.22,-51.1,24.8,3.36
28,Pravia,90,ES,1602134861,87,43.49,-6.15,60.8,3.04
29,Pisco,17,PE,1602134404,82,-13.7,-76.22,62.01,5.82
30,Nicoya,100,CR,1602134862,91,10.15,-85.45,73.54,1.3
31,Saldanha,1,ZA,1602134504,81,-33.01,17.94,50.0,4.7
32,Abhā,0,SA,1602134863,22,18.22,42.51,69.8,5.82
33,Xining,2,CN,1602134504,40,36.62,101.77,58.77,4.9
34,Barrow,90,US,1602134438,86,71.29,-156.79,30.2,20.8
35,Okhotsk,0,RU,1602134689,49,59.38,143.3,49.68,9.98
36,Saint Paul Harbor,90,US,1602134191,87,57.79,-152.41,48.2,12.75
37,Hobart,75,AU,1602134156,87,-42.88,147.33,55.4,6.93
38,Tutóia,100,BR,1602134864,80,-2.76,-42.27,79.02,13.24
39,Bambous Virieux,40,MU,1602134431,74,-20.34,57.76,78.8,18.34
40,Altay,81,CN,1602134864,66,47.87,88.12,37.56,3.49
41,Bredasdorp,45,ZA,1602134433,93,-34.53,20.04,57.2,4.7
42,Bang Saphan,90,TH,1602134865,94,11.21,99.51,78.8,4.7
43,Chokurdakh,27,RU,1602134442,92,70.63,147.92,27.19,8.84
44,Laguna,1,US,1602134782,67,38.42,-121.42,63.0,5.88
45,Aklavik,90,CA,1602134163,93,68.22,-135.01,33.8,6.93
46,Albany,40,US,1602134447,54,42.6,-73.97,55.0,13.87
47,Cayenne,90,GF,1602134866,100,4.93,-52.33,75.2,7.07
48,Rybachiy,0,RU,1602134866,44,48.71,44.74,48.2,11.18
49,Quimper,90,FR,1602134866,100,48.0,-4.1,59.0,14.99
50,Severo-Kuril'sk,51,RU,1602134449,71,50.68,156.12,47.61,23.02
51,Colotlán,0,MX,1602134867,36,22.1,-103.27,60.28,6.31
52,Saint-Philippe,39,RE,1602134493,74,-21.36,55.77,79.0,5.82
53,Vila Velha,35,BR,1602134699,88,-20.33,-40.29,78.01,4.7
54,Salalah,75,OM,1602134673,69,17.02,54.09,80.6,3.36
55,Caravelas,9,BR,1602134825,89,-17.71,-39.25,73.76,8.12
56,Buala,97,SB,1602134868,70,-8.14,159.59,84.38,5.53
57,Mandalgovi,0,MN,1602134868,45,45.76,106.27,49.75,18.61
58,Port Alfred,39,ZA,1602134436,85,-33.59,26.89,66.7,11.43
59,Babīna,4,IN,1602134868,29,25.25,78.47,87.93,1.63
60,Alofi,96,NU,1602134504,88,-19.06,-169.92,78.8,9.17
61,Hilo,1,US,1602134449,74,19.73,-155.09,78.8,3.36
62,Chirongui,90,YT,1602134869,69,-12.93,45.15,82.4,3.36
63,Tocopilla,17,CL,1602134869,65,-22.09,-70.2,60.69,1.72
64,Daniel Flores,97,CR,1602134869,82,9.34,-83.67,70.93,0.74
65,Graaff-Reinet,0,ZA,1602134870,48,-32.25,24.53,70.39,3.94
66,Oruzgan,0,AF,1602134870,23,32.83,66.0,67.5,1.79
67,East London,75,ZA,1602134432,88,-33.02,27.91,64.4,10.29
68,São Félix do Xingu,13,BR,1602134870,68,-6.64,-51.99,74.73,1.34
69,Arlit,0,NE,1602134481,13,18.74,7.39,87.57,8.52
70,Maryborough,0,AU,1602134871,45,-25.53,152.7,78.21,9.01
71,Dikson,100,RU,1602134452,89,73.51,80.55,33.93,21.52
72,Belmonte,40,BR,1602134871,88,-15.86,-38.88,73.4,5.82
73,Dunedin,47,NZ,1602134706,62,-45.87,170.5,45.0,10.0
74,Tailai,0,CN,1602134871,88,46.38,123.4,61.0,1.01
75,Nguruka,51,TZ,1602134871,31,-5.11,31.04,73.9,4.25
76,Great Yarmouth,100,GB,1602134872,99,52.61,1.73,57.99,8.01
77,Manicoré,4,BR,1602134872,88,-5.81,-61.3,74.46,1.21
78,Atuona,3,PF,1602134442,78,-9.8,-139.03,77.67,14.63
79,Bondoukou,55,CI,1602134872,98,8.03,-2.8,69.21,3.4
80,Havre-St-Pierre,90,CA,1602134286,100,50.23,-63.6,48.2,11.41
81,Vardø,75,NO,1602134426,100,70.37,31.11,48.2,8.05
82,Punta Arenas,90,CL,1602134427,80,-53.15,-70.92,42.01,9.17
83,Richards Bay,0,ZA,1602134504,73,-28.78,32.04,68.72,18.01
84,Benton,1,US,1602134873,87,36.33,-94.33,64.4,4.63
85,Butaritari,97,KI,1602134432,80,3.07,172.79,82.08,13.02
86,Acapulco de Juárez,44,MX,1602134423,82,16.86,-99.89,79.54,5.3
87,Mahébourg,40,MU,1602134518,74,-20.41,57.7,78.8,18.34
88,Coelho Neto,34,BR,1602134874,89,-4.26,-43.01,72.88,2.91
89,Bathsheba,40,BB,1602134236,83,13.22,-59.52,80.6,9.17
90,Airai,100,TL,1602134476,78,-8.93,125.41,73.27,3.22
91,Plettenberg Bay,80,ZA,1602134875,78,-34.05,23.37,63.34,4.05
92,Kapaa,1,US,1602134432,69,22.08,-159.32,82.4,11.41
93,Wolgast,78,DE,1602134875,89,54.05,13.77,52.0,1.01
94,Iracoubo,78,GF,1602134875,84,5.48,-53.2,79.83,8.14
95,Mollendo,82,PE,1602134876,77,-17.02,-72.01,60.04,5.61
96,Coquimbo,19,CL,1602134429,93,-29.95,-71.34,50.0,4.7
97,Naica,0,MX,1602134876,25,27.85,-105.48,68.95,7.05
98,Tuktoyaktuk,90,CA,1602134876,95,69.45,-133.04,32.0,6.93
99,Manggar,58,ID,1602134876,67,-2.88,108.27,86.27,13.22
100,Cherskiy,99,RU,1602134498,96,68.75,161.3,28.24,11.72
101,Katangli,0,RU,1602134877,51,51.71,143.23,53.49,8.75
102,Saint-Augustin,100,CA,1602134467,96,51.23,-58.65,50.74,6.85
103,Noumea,20,NC,1602134757,65,-22.28,166.46,77.0,19.46
104,Makakilo City,75,US,1602134877,65,21.35,-158.09,82.4,3.36
105,Vershino-Darasunskiy,3,RU,1602134878,57,52.35,115.52,45.18,10.25
106,Hermanus,67,ZA,1602134436,94,-34.42,19.23,57.0,4.59
107,Kabinda,100,CD,1602134482,91,-6.13,24.48,69.24,3.42
108,Zabul Province,0,AF,1602134878,23,32.25,67.25,66.24,6.69
109,Payo,100,ID,1602134879,86,-3.75,103.64,80.42,2.84
110,Uíge,97,AO,1602134879,95,-7.61,15.06,65.88,2.91
111,Long Branch,1,US,1602134700,58,40.3,-73.99,63.0,10.29
112,Esperance,40,AU,1602134714,56,-33.87,121.9,68.0,13.87
113,Vestmannaeyjar,2,IS,1602134460,82,63.44,-20.27,41.22,13.33
114,Cape Town,40,ZA,1602134393,82,-33.93,18.42,60.01,5.82
115,Nabire,77,ID,1602134880,67,-3.37,135.48,84.85,2.51
116,Leh,0,IN,1602134487,37,34.17,77.58,46.8,5.3
117,Kununurra,40,AU,1602134779,39,-15.77,128.73,96.8,5.82
118,Belyy Yar,40,RU,1602134880,48,53.6,91.39,42.8,8.95
119,Hūn,25,LY,1602134881,89,29.13,15.95,68.94,9.22
120,Clyde River,90,CA,1602134428,79,70.47,-68.59,28.4,10.29
121,Cabo San Lucas,91,MX,1602134349,63,22.89,-109.91,81.0,1.01
122,Nuuk,99,GL,1602134881,75,64.18,-51.72,35.56,8.08
123,Patacamaya,24,BO,1602134881,74,-17.23,-67.92,45.48,4.25
124,George Town,40,MY,1602134402,79,5.41,100.34,86.0,5.82
125,Hamilton,1,US,1602134391,93,39.18,-84.53,59.0,5.68
126,Vuktyl,91,RU,1602134882,86,63.86,57.31,33.66,10.13
127,Ancud,75,CL,1602134453,100,-41.87,-73.82,50.0,10.29
128,Saint George,1,US,1602134450,10,37.1,-113.58,73.4,0.89
129,Hasaki,75,JP,1602134433,100,35.73,140.83,61.0,12.75
130,Busselton,12,AU,1602134441,59,-33.65,115.33,64.0,3.0
131,Khatanga,99,RU,1602134443,97,71.97,102.5,19.74,17.65
132,Carnarvon,0,AU,1602134883,43,-24.87,113.63,73.4,14.99
133,Pevek,100,RU,1602134439,98,69.7,170.31,32.68,15.32
134,Escanaba,90,US,1602134883,87,45.75,-87.06,43.0,4.43
135,Tiksi,57,RU,1602134461,93,71.69,128.87,19.76,12.08
136,Castro,21,BR,1602134251,75,-24.79,-50.01,66.02,4.32
137,Lebu,1,CL,1602134884,85,-37.62,-73.65,45.77,4.81
138,Nikolskoye,90,RU,1602134446,87,59.7,30.79,55.4,2.24
139,Sterling,20,US,1602134680,77,39.01,-77.43,62.01,5.95
140,Bhisho,75,ZA,1602134885,88,-32.85,27.44,64.4,10.29
141,Mwene-Ditu,100,CD,1602134885,94,-7.0,23.45,67.89,5.32
142,Avera,1,US,1602134885,76,33.19,-82.53,64.4,4.63
143,Edson,90,CA,1602134885,87,53.58,-116.44,44.6,6.93
144,Hailar,0,CN,1602134886,44,49.2,119.7,51.51,8.46
145,Makīnsk,19,KZ,1602134886,85,52.63,70.42,34.34,11.18
146,Linjiang,1,CN,1602134515,38,41.81,126.91,67.93,1.81
147,Muzhi,57,RU,1602134886,80,65.37,64.67,35.11,9.71
148,Sinop Province,40,TR,1602134523,73,41.77,34.87,69.8,11.41
149,Tuatapere,6,NZ,1602134887,62,-46.13,167.68,48.99,8.99
150,Kousséri,20,CM,1602134887,88,12.08,15.03,78.8,6.93
151,Nantucket,1,US,1602134256,64,41.28,-70.1,59.0,18.34
152,Rocha,20,UY,1602134513,77,-34.48,-54.33,49.46,5.66
153,Port Elizabeth,75,ZA,1602134440,82,-33.92,25.57,62.6,11.41
154,Les Cayes,55,HT,1602134704,81,18.2,-73.75,77.25,3.94
155,Saskylakh,85,RU,1602134444,93,71.92,114.08,16.7,14.74
156,Codrington,93,AU,1602134676,93,-38.27,141.97,56.66,14.45
157,Vega de Alatorre,41,MX,1602134888,67,20.03,-96.63,76.48,14.72
158,Mucurapo,0,TT,1602134888,94,10.67,-61.53,80.01,5.7
159,Majene,99,ID,1602134540,76,-3.54,118.97,83.57,5.44
160,Labytnangi,93,RU,1602134484,85,66.66,66.42,34.41,11.9
161,Agadez,0,NE,1602134889,17,19.75,10.25,76.21,11.74
162,Hithadhoo,100,MV,1602134440,82,-0.6,73.08,80.42,14.45
163,Manono,83,CD,1602134889,83,-7.3,27.42,71.44,3.38
164,Xapuri,32,BR,1602134889,71,-10.65,-68.5,75.58,2.33
165,Korhogo,23,CI,1602134889,94,9.45,-5.63,70.45,4.59
166,Evensk,2,RU,1602134425,65,61.95,159.23,39.0,15.55
167,Isangel,75,VU,1602134441,83,-19.55,169.27,78.8,5.82
168,Chui,0,UY,1602134533,90,-33.7,-53.46,50.94,5.68
169,Beni Mazar,54,EG,1602134890,26,28.5,30.8,80.1,2.86
170,Sorong,87,ID,1602134751,82,-0.88,131.25,80.62,9.8
171,Leningradskiy,100,RU,1602134478,95,69.38,178.42,34.23,15.32
172,Semaria,2,IN,1602134891,46,24.31,79.97,87.98,7.07
173,Cidreira,90,BR,1602134455,93,-30.18,-50.21,59.99,6.49
174,Joshīmath,0,IN,1602134891,21,30.57,79.57,71.37,6.33
175,Ambulu,94,ID,1602134891,62,-8.35,113.61,84.54,10.85
176,Porto Velho,11,BR,1602134891,88,-8.76,-63.9,77.0,3.36
177,Bilma,2,NE,1602134892,17,18.69,12.92,78.1,7.63
178,Sarai,63,RU,1602134892,49,53.75,41.02,49.84,12.71
179,Broome,75,US,1602134892,76,42.25,-75.83,48.99,11.41
180,Hambantota,40,LK,1602134679,66,6.12,81.12,89.6,9.17
181,Nguru,97,NG,1602134892,52,12.88,10.45,77.92,6.08
182,General Higinio Morínigo,14,PY,1602134893,85,-25.95,-55.92,62.62,4.05
183,Tasiilaq,92,GL,1602134429,94,65.61,-37.64,32.0,5.82
184,Kruisfontein,14,ZA,1602134490,91,-34.0,24.73,60.01,6.96
185,Plouzané,90,FR,1602134893,100,48.38,-4.62,59.0,21.92
186,Cam Ranh,75,VN,1602134894,70,11.92,109.16,89.6,11.41
187,Forbes,13,AU,1602134894,35,-33.38,148.02,73.99,1.99
188,Batticaloa,96,LK,1602134894,60,7.71,81.69,86.0,4.41
189,Hualmay,46,PE,1602134783,87,-11.1,-77.61,61.92,6.49
190,Seoul,1,KR,1602134894,43,37.57,126.98,73.4,6.93
191,Mar del Plata,25,AR,1602134363,75,-38.0,-57.56,48.0,3.36
192,Olafsvik,100,IS,1602134467,92,64.89,-23.71,42.51,11.79
193,Atbasar,0,KZ,1602134895,75,51.8,68.33,36.95,11.52
194,Mincivan,94,AZ,1602134895,60,39.03,46.72,58.14,0.85
195,Vostok,74,RU,1602134895,57,46.49,135.88,46.87,8.59
196,Roald,75,NO,1602134895,100,62.58,6.13,50.0,5.82
197,Dukat,91,RU,1602134536,89,62.55,155.55,25.5,12.62
198,Ormara,0,PK,1602134896,69,25.21,64.64,81.39,2.82
199,Dali,93,CN,1602134896,71,25.7,100.18,70.25,2.93
200,Guerrero Negro,0,MX,1602134688,76,27.98,-114.06,73.17,13.24
201,Mount Gambier,90,AU,1602134491,93,-37.83,140.77,51.8,28.86
202,New Norfolk,100,AU,1602134428,89,-42.78,147.06,54.0,1.01
203,Puerto Ayora,99,EC,1602134429,94,-0.74,-90.35,66.0,8.39
204,Kavieng,88,PG,1602134458,70,-2.57,150.8,84.87,5.08
205,Calama,0,CL,1602134897,26,-22.47,-68.93,55.4,18.34
206,Port Hedland,1,AU,1602134897,19,-20.32,118.57,86.0,16.11
207,Denpasar,75,ID,1602134612,74,-8.65,115.22,84.2,17.22
208,Klaksvík,81,FO,1602134497,81,62.23,-6.59,46.4,9.17
209,Te Anau,15,NZ,1602134526,56,-45.42,167.72,48.74,2.13
210,Grindavik,75,IS,1602134486,86,63.84,-22.43,41.0,12.75
211,Kiunga,100,PG,1602134898,67,-6.12,141.29,87.62,3.38
212,Sangar,96,RU,1602134898,86,63.92,127.47,34.36,9.91
213,Karratha,2,AU,1602134487,14,-20.74,116.85,84.85,14.81
214,Belaya Gora,32,RU,1602134899,81,68.53,146.42,32.45,4.14
215,Port Macquarie,40,AU,1602134899,51,-31.43,152.92,84.2,11.41
216,Esim,100,GH,1602134899,89,4.87,-2.24,76.35,8.7
217,Vila Franca do Campo,20,PT,1602134466,88,37.72,-25.43,68.0,2.24
218,Kumul,0,CN,1602134900,30,42.8,93.45,57.94,6.33
219,Fairbanks,1,US,1602134464,75,64.84,-147.72,41.0,8.05
220,Antofagasta,90,CL,1602134710,82,-23.65,-70.4,57.2,6.93
221,Mackay,8,AU,1602134900,50,-21.15,149.2,80.01,10.29
222,Acajutla,99,SV,1602134900,100,13.59,-89.83,71.01,4.23
223,Bethel,1,US,1602134435,66,41.37,-73.41,55.0,8.05
224,Berdigestyakh,9,RU,1602134901,72,62.1,126.7,37.65,10.6
225,Fort Frances,1,CA,1602134640,73,48.6,-93.4,39.0,5.19
226,Erzin,0,TR,1602134545,72,36.96,36.2,71.6,1.12
227,Upernavik,0,GL,1602134424,85,72.79,-56.15,22.12,8.9
228,Arraial do Cabo,42,BR,1602134426,90,-22.97,-42.03,73.65,18.19
229,Yurimaguas,81,PE,1602134902,70,-5.9,-76.08,74.17,1.14
230,Tame,2,CO,1602134902,83,6.46,-71.73,72.68,3.71
231,Beyneu,9,KZ,1602134902,35,45.32,55.2,53.67,2.24
232,Cuamba,20,MZ,1602134902,58,-14.8,36.54,72.73,2.35
233,Zyryanka,62,RU,1602134902,78,65.75,150.85,35.55,8.25
234,Pahrump,0,US,1602134455,16,36.21,-115.98,70.0,1.01
235,Harbour Breton,100,CA,1602134903,100,47.48,-55.8,57.99,1.99
236,Xichang,98,CN,1602134650,75,27.9,102.26,65.21,2.21
237,Birjand,0,IR,1602134903,16,32.87,59.22,69.8,13.87
238,Tiznit Province,81,MA,1602134903,49,29.58,-9.5,70.83,0.83
239,Orlik,100,RU,1602134904,76,52.52,99.83,35.02,2.04
240,Hobyo,0,SO,1602134474,77,5.35,48.53,81.03,9.04
241,Sitka,75,US,1602134904,87,57.05,-135.33,46.4,4.7
242,Tabuk,95,PH,1602134763,77,17.42,121.44,81.95,10.51
243,Thompson,90,CA,1602134460,80,55.74,-97.86,30.2,8.05
244,Bonavista,100,CA,1602134905,87,48.65,-53.11,54.0,11.01
245,Sirte,8,LY,1602134905,81,31.21,16.59,74.12,11.41
246,Talnakh,40,RU,1602134459,92,69.49,88.4,26.6,11.18
247,Sola,33,VU,1602134430,84,-13.88,167.55,78.82,17.54
248,Nanortalik,100,GL,1602134427,73,60.14,-45.24,38.64,10.27
249,Pontal do Paraná,83,BR,1602134906,100,-25.65,-48.51,64.4,3.36
250,Bandarbeyla,39,SO,1602134686,76,9.49,50.81,80.31,12.17
251,Honiara,40,SB,1602134906,83,-9.43,159.95,82.4,9.17
252,Huarmey,26,PE,1602134906,88,-10.07,-78.15,62.08,6.44
253,Voi,46,KE,1602134907,66,-3.39,38.56,73.51,7.63
254,Beitbridge,43,ZW,1602134907,74,-22.22,30.0,67.21,15.59
255,Longyearbyen,20,SJ,1602134907,83,78.22,15.64,39.2,20.8
256,Iwanai,91,JP,1602134907,57,42.97,140.51,58.35,7.38
257,Merrill,75,US,1602134543,93,45.18,-89.68,44.6,5.46
258,Kahului,20,US,1602134437,58,20.89,-156.47,84.2,17.22
259,Liusha,100,CN,1602134908,88,27.21,108.59,53.11,3.58
260,Oktyabr'skiy,99,RU,1602134714,72,54.48,53.47,42.15,3.04
261,Naze,75,JP,1602134500,74,28.37,129.48,78.8,36.91
262,Kaitangata,40,NZ,1602134206,51,-46.28,169.85,48.99,5.99
263,Biloela,0,AU,1602134908,29,-24.42,150.5,87.19,1.43
264,Ambovombe,8,MG,1602134909,69,-25.17,46.08,69.96,10.76
265,Flin Flon,34,CA,1602134680,96,54.77,-101.86,30.74,0.16
266,Shingū,75,JP,1602134909,93,33.73,135.98,62.6,2.24
267,Taltal,1,CL,1602134783,46,-25.4,-70.48,64.76,3.56
268,Okha,0,RU,1602134909,70,53.57,142.95,50.81,17.02
269,Lata,90,PT,1602134499,94,40.16,-8.33,55.99,0.56
270,Auki,95,SB,1602134701,78,-8.77,160.7,82.54,4.41
271,Harper,100,LR,1602134910,87,4.38,-7.72,76.82,8.12
272,Høyanger,75,NO,1602134910,93,61.22,6.07,48.0,2.24
273,Adrar,83,MR,1602134910,28,20.5,-10.07,88.23,15.99
274,Rørvik,75,NO,1602134910,87,64.86,11.24,51.8,4.7
275,Floresta,0,BR,1602134766,79,-8.6,-38.57,71.55,6.64
276,Kloulklubed,75,PW,1602134525,83,7.04,134.26,78.8,16.11
277,Ponta do Sol,75,PT,1602134471,77,32.67,-17.1,69.8,5.82
278,Togur,99,RU,1602134911,96,58.36,82.83,27.16,10.11
279,Novy Urengoy,100,RU,1602134912,95,66.08,76.63,34.41,17.43
280,Tsiroanomandidy,1,MG,1602134912,55,-18.77,46.03,75.54,2.64
281,Wonthaggi,54,AU,1602134912,82,-38.6,145.59,62.01,19.77
282,Grand Forks,1,US,1602134912,53,47.94,-97.43,35.6,3.36
283,Motygino,34,RU,1602134912,90,58.18,94.76,31.46,7.63
284,São José do Campestre,74,BR,1602134912,95,-6.32,-35.71,70.05,3.69
285,Derzhavīnsk,0,KZ,1602134913,71,51.1,66.32,37.47,13.94
286,Ust'-Kulom,100,RU,1602134520,95,61.69,53.69,37.62,6.93
287,Mangaratiba,63,BR,1602134747,77,-22.96,-44.04,75.88,3.89
288,Nhulunbuy,40,AU,1602134716,52,-12.23,136.77,87.8,12.75
289,Milan,0,IT,1602134791,93,45.46,9.19,50.0,1.12
290,Goderich,24,CA,1602134501,83,43.75,-81.72,55.0,18.97
291,Semīrom,0,IR,1602134702,38,31.42,51.57,55.87,4.97
292,Srednekolymsk,11,RU,1602134491,86,67.45,153.68,31.69,12.17
293,Mahrīz,0,IR,1602134914,34,31.59,54.43,66.2,9.17
294,Madang,58,PG,1602134914,70,-5.22,145.8,85.37,9.55
295,Ostrovnoy,100,RU,1602134431,90,68.05,39.51,47.52,12.86
296,Teya,96,RU,1602134722,88,60.38,92.63,31.39,8.79
297,Chaumont,92,FR,1602134915,91,48.12,5.13,53.01,1.99
298,Ribeira Grande,99,PT,1602134434,85,38.52,-28.7,70.3,9.86
299,Tengzhou,92,CN,1602134915,36,35.08,117.15,73.08,8.72
300,Melita,0,CA,1602134915,75,49.27,-101.0,41.0,4.14
301,Marquette,26,US,1602134915,68,46.53,-87.63,48.99,4.0
302,Sidrolândia,40,BR,1602134916,73,-20.93,-54.96,77.0,3.36
303,Russell,1,US,1602134916,93,32.35,-85.2,69.8,4.16
304,Le Passage,90,FR,1602134916,93,44.2,0.6,57.0,4.7
305,Esfarāyen,90,IR,1602134916,58,37.08,57.51,55.4,4.7
306,Morón,0,AR,1602134674,78,-34.65,-58.62,59.0,4.79
307,Navahrudak,88,BY,1602134917,95,53.6,25.83,49.12,1.7
308,Northam,98,GB,1602134679,98,51.03,-4.22,60.01,15.99
309,Worland,1,US,1602134650,42,44.02,-107.96,48.2,5.82
310,Dingle,100,PH,1602134768,84,11.0,122.67,81.81,1.68
311,Shiloh,1,US,1602134917,100,38.56,-89.9,66.0,3.36
312,Faanui,2,PF,1602134497,80,-16.48,-151.75,78.46,21.52
313,Peqin,34,AL,1602134918,93,41.05,19.75,53.6,1.12
314,Touros,40,BR,1602134508,100,-5.2,-35.46,71.6,4.7
315,Beroroha,0,MG,1602134918,53,-21.67,45.17,78.12,3.49
316,Marsabit,80,KE,1602134918,75,2.33,37.99,66.51,18.03
317,Restrepo,40,CO,1602134919,93,3.82,-76.52,66.2,2.24
318,Babol,90,IR,1602134919,100,36.55,52.68,60.8,6.93
319,Santa Cruz Cabrália,40,BR,1602134919,88,-16.28,-39.02,73.4,5.82
320,The Valley,20,AI,1602134919,88,18.22,-63.06,81.0,2.24
321,Narsaq,100,GL,1602134455,79,60.92,-46.05,32.0,4.7
322,Noyabrsk,100,RU,1602134920,98,63.2,75.45,32.4,17.72
323,Urengoy,100,RU,1602134920,96,65.97,78.37,35.35,15.37
324,São Luiz Gonzaga,98,BR,1602134916,94,-28.41,-54.96,60.44,5.57
325,Borovoy,98,RU,1602134920,80,55.43,86.08,30.2,11.18
326,Mumford,99,GH,1602134921,90,5.26,-0.76,75.79,6.85
327,Tosya,96,TR,1602134921,43,41.02,34.04,67.19,0.74
328,Kangaatsiaq,64,GL,1602134686,90,68.31,-53.46,28.17,10.56
329,Bitung,40,ID,1602134921,70,1.45,125.18,86.0,4.7
330,Sakakah,0,SA,1602134921,17,29.97,40.21,73.4,3.13
331,Constitución,24,CL,1602134451,79,-35.33,-72.42,48.63,8.23
332,Katsuura,75,JP,1602134448,87,35.13,140.3,61.0,17.22
333,Yar-Sale,100,RU,1602134922,82,66.83,70.83,35.44,17.78
334,Torbay,90,CA,1602134439,100,47.67,-52.73,54.0,25.28
335,Madona,81,LV,1602134922,97,56.85,26.22,49.39,3.69
336,San-Pédro,100,CI,1602134923,92,4.75,-6.64,75.34,4.0
337,Llanes,69,ES,1602134923,82,43.42,-4.75,63.0,2.1
338,Shakawe,0,BW,1602134923,50,-18.37,21.85,66.43,4.14
339,Jiangyou,96,CN,1602134923,69,31.77,104.72,65.84,5.53
340,Ayní,5,TJ,1602134923,38,39.39,68.54,56.55,3.83
341,Chagoda,100,RU,1602134924,95,59.16,35.33,51.82,4.45
342,Tabou,98,CI,1602134451,89,4.42,-7.35,76.39,7.74
343,Yārāda,75,IN,1602134924,79,17.65,83.27,87.8,6.93
344,Ugoofaaru,52,MV,1602134924,73,5.67,73.0,82.44,11.12
345,Yeppoon,0,AU,1602134463,32,-23.13,150.73,84.2,9.17
346,Simões,34,BR,1602134924,35,-7.6,-40.82,74.71,9.44
347,Caluquembe,84,AO,1602134925,60,-13.78,14.68,57.49,5.93
348,Port-Cartier,90,CA,1602134684,100,50.03,-66.87,50.0,5.82
349,Dryden,40,CA,1602134925,93,49.78,-92.75,37.4,9.17
350,Port-Gentil,40,GA,1602134499,94,-0.72,8.78,75.2,1.12
351,Osa,100,RU,1602134925,77,57.28,55.46,38.08,5.39
352,Baruun-Urt,100,MN,1602134543,41,46.68,113.28,58.68,15.48
353,Cairo Montenotte,0,IT,1602134926,56,44.4,8.27,60.01,3.58
354,Sechura,0,PE,1602134522,77,-5.56,-80.82,64.92,8.84
355,Haines Junction,96,CA,1602134462,82,60.75,-137.51,36.64,2.33
356,Vila,40,PT,1602134527,100,42.03,-8.16,61.0,1.12
357,Bungu,35,TZ,1602134927,68,-7.63,39.06,79.11,2.82
358,Vestmanna,93,FO,1602134927,81,62.16,-7.17,46.4,9.17
359,Mariehamn,75,AX,1602134927,93,60.1,19.93,55.4,13.87
360,Iqaluit,90,CA,1602134447,86,63.75,-68.51,33.8,9.17
361,Norman Wells,75,CA,1602134509,82,65.28,-126.83,37.4,4.7
362,San Patricio,75,US,1602134927,83,28.02,-97.52,77.0,3.36
363,Hofn,99,IS,1602134443,70,64.25,-15.21,45.12,3.6
364,Ixtapa,20,MX,1602134474,88,20.7,-105.2,82.99,3.36
365,Yangi Marg`ilon,51,UZ,1602134545,31,40.43,71.72,60.8,6.93
366,Severnyy,91,RU,1602134928,53,50.68,36.55,51.8,13.42
367,Camocim,64,BR,1602134928,90,-2.9,-40.84,74.08,10.42
368,Ishigaki,40,JP,1602134511,69,24.34,124.16,82.4,14.99
369,Kysyl-Syr,95,RU,1602134929,78,63.9,122.76,35.6,12.39
370,Halifax,100,CA,1602134698,96,44.65,-63.57,59.0,3.0
371,Nuşfalău,20,RO,1602134929,93,47.2,22.73,55.4,3.36
372,Sisimiut,86,GL,1602134929,84,66.94,-53.67,27.41,12.93
373,Banyo,100,CM,1602134929,92,6.75,11.82,63.64,1.81
374,Lukulu,69,ZM,1602134930,57,-14.37,23.24,72.23,3.44
375,Mossamedes,95,AO,1602134742,85,-15.2,12.15,63.5,2.48
376,Talaya,31,RU,1602134930,74,61.38,152.75,34.2,8.86
377,Gölköy,0,TR,1602134930,93,40.69,37.62,64.4,3.36
378,Westport,1,US,1602134448,54,41.14,-73.36,59.0,10.29
379,Burgthann,32,DE,1602134695,87,49.35,11.31,48.2,3.36
380,Chaman,0,PK,1602134931,19,30.92,66.45,73.15,4.18
381,Ginda,0,IN,1602134931,45,30.69,78.49,84.2,3.36
382,Bowen,31,AU,1602134931,32,-20.02,148.23,82.4,16.98
383,Shyroke,82,UA,1602134931,71,47.69,33.26,57.2,8.95
384,Council Bluffs,1,US,1602134932,38,41.26,-95.86,64.0,6.93
385,Port Lincoln,27,AU,1602134932,63,-34.73,135.87,58.41,18.75
386,Horsham,75,GB,1602134932,93,51.06,-0.33,59.0,11.41
387,Lyubech,94,UA,1602134932,95,51.7,30.66,56.82,6.24
388,Coyhaique,90,CL,1602134932,87,-45.58,-72.07,44.6,4.7
389,Vodnyy,100,RU,1602134933,92,63.5,53.41,36.46,7.07
390,San Cristobal,24,VE,1602134494,87,7.77,-72.22,64.27,2.37
391,Ludvika,93,SE,1602134933,100,60.15,15.19,50.0,4.7
392,Naruja,0,GE,1602134933,45,41.91,41.95,66.2,17.22
393,Yarim,0,YE,1602134460,31,14.3,44.38,60.94,21.0
394,Ano Poroia,100,GR,1602134933,89,41.28,23.03,62.01,6.08
395,Monroe,20,US,1602134934,93,43.15,-77.68,54.0,6.93
396,Kidal,7,ML,1602134733,15,18.44,1.41,84.43,7.23
397,Namikupa,73,TZ,1602134935,81,-10.83,39.6,75.09,3.36
398,Perelyub,3,RU,1602134935,78,51.87,50.37,51.13,9.93
399,Ordynskoye,80,RU,1602134935,88,54.37,81.9,33.93,10.25
400,Qasigiannguit,1,GL,1602134935,62,68.82,-51.19,24.8,3.36
401,Kwinana,75,AU,1602134935,56,-32.25,115.77,70.0,9.17
402,Carutapera,63,BR,1602134936,88,-1.2,-46.02,76.26,6.71
403,Poum,73,NC,1602134467,76,-20.23,164.02,74.43,16.73
404,Mocuba,68,MZ,1602134770,70,-16.84,36.99,72.54,2.33
405,Deputatsky,100,RU,1602134544,97,69.3,139.9,23.29,4.47
406,Urusha,0,RU,1602134937,51,54.05,122.9,47.34,4.07
407,Coahuayana Viejo,75,MX,1602134773,85,18.73,-103.68,77.81,1.36
408,Kavaratti,40,IN,1602134492,74,10.57,72.64,84.2,5.82
409,Nikol'sk,72,RU,1602134937,54,53.72,46.07,47.82,4.68
410,Loreto,0,MX,1602134938,47,22.27,-101.97,58.06,9.15
411,Storsteinnes,75,NO,1602134513,66,69.24,19.23,55.4,18.34
412,Caxito,75,AO,1602134530,83,-8.58,13.66,73.4,3.36
413,Benjamín Hill,47,MX,1602134938,18,30.17,-111.1,77.76,5.23
414,Novoseleznëvo,0,RU,1602134938,76,55.68,69.21,36.46,11.12
415,Saint-François,33,FR,1602134939,94,46.42,3.91,48.99,4.68
416,Kaita,75,JP,1602134939,100,34.37,132.55,64.4,13.87
417,Saluzzo,0,IT,1602134939,100,44.65,7.49,46.0,3.36
418,Shillong,40,IN,1602134939,65,25.57,91.88,82.4,2.24
419,Erenhot,100,CN,1602134939,45,43.65,111.98,62.13,19.93
420,Panama City,40,PA,1602134719,94,8.99,-79.52,80.01,2.24
421,Menongue,36,AO,1602134940,66,-14.66,17.69,61.61,6.11
422,Jalu,0,LY,1602134770,24,29.03,21.55,76.24,6.96
423,Maltahöhe,0,NA,1602134940,61,-24.83,16.98,58.33,4.68
424,Murayama,75,JP,1602134940,93,38.52,140.33,57.2,6.93
425,Paamiut,99,GL,1602134732,72,61.99,-49.67,38.97,13.02
426,Sukhobezvodnoye,100,RU,1602134941,61,57.05,44.89,49.68,9.46
427,Mareeba,92,AU,1602134941,46,-17.0,145.43,84.99,5.99
428,Teteltzingo,61,MX,1602134941,83,19.07,-97.15,48.56,4.59
429,Kudahuvadhoo,32,MV,1602134941,75,2.67,72.89,83.12,10.47
430,Namatanai,87,PG,1602134684,74,-3.67,152.43,83.73,7.05
431,Flinders,43,AU,1602134942,49,-34.58,150.86,80.01,7.0
432,Petropavlovsk-Kamchatskiy,3,RU,1602134942,37,53.05,158.65,55.4,15.66
433,Vanimo,98,PG,1602134732,62,-2.67,141.3,86.95,5.61
434,Igrim,1,RU,1602134942,80,63.19,64.42,35.31,6.13
435,Pandan,100,PH,1602134943,81,14.05,124.17,83.82,11.16
436,Sambava,46,MG,1602134525,78,-14.27,50.17,77.23,4.25
437,Khasan,0,RU,1602134943,49,42.43,130.64,63.34,7.65
438,Cap-aux-Meules,100,CA,1602134943,83,47.38,-61.86,57.06,27.31
439,Mānsa,0,IN,1602134943,15,29.98,75.38,91.49,4.81
440,Vilhena,21,BR,1602134519,69,-12.74,-60.15,71.55,1.92
441,Bhag,0,PK,1602134644,13,29.04,67.82,91.56,1.72
442,Altea,7,ES,1602134944,85,38.6,-0.05,66.99,4.61
443,Griffith,1,US,1602134944,93,41.53,-87.42,48.99,2.62
444,Santa Rita,20,BR,1602134945,100,-7.11,-34.98,73.4,3.36
445,Strezhevoy,75,RU,1602134443,96,60.73,77.59,33.8,6.71
446,Cairns,90,AU,1602134707,48,-16.92,145.77,84.99,16.11
447,Rawson,30,AR,1602134448,44,-43.3,-65.1,52.92,14.58
448,Formiga,52,BR,1602134945,40,-20.46,-45.43,75.49,3.65
449,Grants Pass,90,US,1602134687,62,42.44,-123.33,62.6,2.04
450,Tarauacá,8,BR,1602134946,94,-8.16,-70.77,70.75,1.7
451,Chateaubelair,40,VC,1602134946,83,13.28,-61.25,82.4,12.75
452,Kanye,85,BW,1602134946,86,-24.97,25.33,57.51,17.47
453,Achutupo,79,PA,1602134946,83,9.2,-77.98,78.08,4.41
454,Maningrida,54,AU,1602134946,56,-12.07,134.27,87.3,16.75
455,Geraldton,75,AU,1602134425,56,-28.77,114.6,73.4,10.29
456,Mudgee,75,AU,1602134947,49,-32.59,149.59,69.8,17.22
457,Trossingen,70,DE,1602134947,92,48.08,8.64,46.99,6.24
458,Marabu,40,MY,1602134947,66,4.41,114.01,87.8,5.82
459,Eilat,0,IL,1602134948,39,29.56,34.95,82.4,4.7
460,Bonthe,93,SL,1602134948,87,7.53,-12.51,77.09,3.22
461,Abrau-Dyurso,0,RU,1602134948,63,44.69,37.59,66.2,4.47
462,Vangaindrano,99,MG,1602134777,89,-23.35,47.6,65.73,4.65
463,Launceston,75,AU,1602134620,93,-41.45,147.17,55.99,13.87
464,Quebo,100,GW,1602134949,97,11.33,-14.93,75.36,1.25
465,Aloleng,83,PH,1602134949,72,16.13,119.78,85.55,7.14
466,Estelle,90,US,1602134780,100,29.85,-90.11,79.0,5.82
467,Inta,50,RU,1602134505,85,66.03,60.17,33.98,13.58
468,Moa,3,CU,1602134949,80,20.66,-74.94,78.46,9.69
469,Vinstra,100,NO,1602134949,80,61.6,9.75,48.29,2.98
470,Porto Belo,50,BR,1602134950,75,-27.16,-48.55,71.01,5.88
471,Sangrur,0,IN,1602134950,17,30.23,75.83,90.36,4.18
472,Price,1,US,1602134950,16,39.6,-110.81,53.6,9.17
473,Dalby,43,AU,1602134950,20,-27.18,151.27,88.0,3.0
474,Tombouctou,0,ML,1602134950,17,20.0,-3.0,85.98,10.94
475,Lorengau,83,PG,1602134502,65,-2.02,147.27,86.41,8.01
476,Oddur,62,SO,1602134951,73,4.12,43.89,77.7,12.64
477,Oranjemund,75,NA,1602134673,91,-28.55,16.43,56.79,10.6
478,Tangzhai,90,CN,1602134951,46,34.43,116.59,75.99,8.99
479,Champerico,96,GT,1602134952,96,14.3,-91.92,66.99,1.99
480,Yulara,0,AU,1602134471,18,-25.24,130.99,73.4,5.82
481,Sobolevo,100,RU,1602134952,89,54.43,31.9,52.25,7.43
482,Haimen,75,CN,1602134952,57,23.19,116.61,80.6,6.71
483,Vila do Maio,75,CV,1602134952,83,15.13,-23.22,78.8,10.29
484,Ambilobe,75,MG,1602134953,77,-13.2,49.05,78.28,4.43
485,Porto Santo,75,PT,1602134953,88,33.07,-16.34,69.8,4.7
486,São João da Barra,55,BR,1602134480,95,-21.64,-41.05,73.33,6.26
487,Kambove,86,CD,1602134953,69,-10.88,26.6,68.23,2.3
488,Palmer,75,US,1602134529,58,42.16,-72.33,57.2,11.41
489,Matagami,75,CA,1602134954,96,49.75,-77.63,32.0,9.17
490,Mackenzie,90,CA,1602134954,93,55.3,-123.17,37.4,2.24
491,Pokrovskoye,0,RU,1602134954,62,47.42,38.9,52.56,18.28
492,Taoudenni,37,ML,1602134954,17,22.68,-3.98,83.98,13.69
493,Pueblo Rico,98,CO,1602134954,88,5.24,-76.04,65.08,2.17
494,Padang,100,ID,1602134955,85,-0.95,100.35,76.71,1.39
495,Maceió,40,BR,1602134862,100,-9.67,-35.74,71.6,4.7
496,Kalamb,42,IN,1602134955,44,19.05,73.95,82.78,5.19
497,Fort Nelson,75,CA,1602134675,76,58.81,-122.7,39.2,4.7
498,Pangnirtung,100,CA,1602134485,88,66.15,-65.71,30.09,9.91
499,Maués,46,BR,1602134956,68,-3.38,-57.72,76.15,0.74
500,Dhamtari,16,IN,1602134956,74,20.71,81.55,84.42,5.08
501,Ginir,2,ET,1602134956,60,7.13,40.7,65.66,2.06
502,Tagāb,1,AF,1602134956,21,34.85,69.65,69.8,3.8
503,San Miguel de Tucumán,37,AR,1602134756,46,-26.82,-65.22,69.8,4.7
504,Manokwari,100,ID,1602134483,67,-0.87,134.08,84.11,3.6
505,Portland,75,US,1602134836,82,45.52,-122.68,64.0,1.34
506,Lewiston,90,US,1602134957,62,44.1,-70.21,55.4,12.75
507,Coroico,40,BO,1602134957,76,-16.19,-67.73,37.4,3.36
508,Tondano,40,ID,1602134957,70,1.3,124.91,86.0,4.7
509,Port Hardy,75,CA,1602134545,100,50.7,-127.42,51.8,3.36
510,Batavia,1,US,1602134958,81,41.85,-88.31,53.01,5.28
511,Biggar,98,GB,1602134958,10,55.62,-3.52,44.01,1.36
512,Beyla,84,GN,1602134958,97,8.68,-8.63,66.63,2.93
513,Kadyy,100,RU,1602134959,65,57.79,43.19,50.52,9.35
514,Havøysund,75,NO,1602134959,76,71.0,24.66,55.4,18.34
515,Koslan,100,RU,1602134959,90,63.46,48.9,44.96,7.34
516,Pak Phanang,40,TH,1602134959,63,8.35,100.2,93.2,3.36
517,Brownwood,75,US,1602134959,72,31.71,-98.99,64.4,9.69
518,Gubakha,96,RU,1602134960,77,58.84,57.55,37.0,4.0
519,Awjilah,0,LY,1602134960,29,29.11,21.29,75.7,7.56
520,Verkhnyaya Inta,48,RU,1602134960,84,65.98,60.31,33.96,11.65
521,Wagar,0,SD,1602134960,37,16.15,36.2,85.86,11.41
522,Pinawa,39,CA,1602134960,86,50.15,-95.88,40.75,5.03
523,Nome,90,US,1602134519,81,64.5,-165.41,45.0,27.51
524,Yeniseysk,95,RU,1602134961,89,58.45,92.17,31.32,5.61
525,Pocosol,93,CR,1602134961,100,10.37,-84.62,68.0,6.93
526,La Ronge,20,CA,1602134736,80,55.1,-105.28,32.0,5.86
527,Mehamn,20,NO,1602134671,81,71.04,27.85,48.2,8.05
528,Kwang Binh,100,VN,1602134962,84,17.48,106.6,80.53,20.56
529,Villazón,100,BO,1602134962,73,-22.09,-65.59,46.31,1.92
530,Garoowe,1,SO,1602134962,67,8.41,48.48,79.65,8.66
531,Sørland,90,NO,1602134438,93,67.67,12.69,51.8,23.04
532,Zhicheng,76,CN,1602134669,64,30.3,111.5,67.12,5.86
533,Ust'-Ilimsk,88,RU,1602134963,82,58.0,102.66,36.54,9.17
534,Rosh Pinna,0,IL,1602134963,53,32.97,35.54,73.4,3.36
535,Arrondissement de Saint-Denis,90,FR,1602134435,87,48.92,2.33,59.0,12.75
536,Yauya,20,PE,1602134963,75,-8.98,-77.3,48.22,3.56
537,Satipo,69,PE,1602134964,73,-11.25,-74.64,68.52,3.0
538,Olkhovka,0,RU,1602134964,82,53.21,60.61,34.56,5.12
539,Mīzan Teferī,3,ET,1602134964,72,6.98,35.58,68.74,2.17
540,Uglich,100,RU,1602134964,63,57.53,38.33,53.89,10.65
541,South Kazakhstan Region,98,KZ,1602134965,30,43.0,68.0,55.45,9.35
542,Ahipara,15,NZ,1602134965,65,-35.17,173.17,59.74,6.38
543,Changli,63,CN,1602134965,31,39.7,119.15,72.97,8.48
544,Bandundu Province,100,CD,1602134965,94,-3.32,17.37,72.68,2.73
545,Port Blair,100,IN,1602134500,82,11.67,92.75,79.34,6.11
546,Zaraza,0,VE,1602134965,96,9.35,-65.32,73.04,2.28
547,Kachug,100,RU,1602134966,59,53.96,105.88,42.53,4.38
548,La Joya,27,MX,1602134966,87,18.67,-99.47,60.01,2.55
549,Takoradze,98,GH,1602134966,90,4.88,-1.76,76.26,7.72
550,Mana,62,GF,1602134966,85,5.66,-53.78,79.25,8.41
551,Huoqiu,1,CN,1602134966,52,32.34,116.27,71.1,9.19
552,Umluj,0,SA,1602134967,21,25.02,37.27,96.87,16.42
553,Sioux Lookout,75,CA,1602134346,93,50.1,-91.92,39.2,4.7
554,Ketchikan,20,US,1602134470,93,55.34,-131.65,42.8,4.7
555,Broken Hill,75,AU,1602134967,54,-31.95,141.43,59.0,23.04
556,Jasper,1,US,1602134968,88,37.2,-94.35,64.99,3.36
557,Amahai,88,ID,1602134968,73,-3.33,128.92,84.2,6.33
558,Ust'-Barguzin,100,RU,1602134968,65,53.45,108.98,46.72,7.14
559,Mikuni,75,JP,1602134968,82,36.22,136.15,62.6,10.29
560,Port Montt,90,CL,1602134711,87,-41.47,-72.94,48.2,13.87
561,Washington,76,US,1602134719,66,47.5,-120.5,64.99,1.01
562,Gorontalo,100,ID,1602134969,61,0.54,123.06,87.53,4.03
563,Asău,100,RO,1602134446,98,46.43,26.4,57.0,4.12
564,Olinda,75,BR,1602134969,83,-8.01,-34.86,78.8,2.24
565,San Ramon,16,US,1602134228,86,37.78,-121.98,60.01,1.99
566,Chapada dos Guimarães,0,BR,1602134517,30,-15.46,-55.75,93.2,5.82
567,Sokoni,20,TZ,1602134766,78,-6.43,39.55,80.6,5.82
568,Kutum,53,SD,1602134738,31,14.2,24.67,76.55,4.54
569,Ondangwa,0,NA,1602134970,34,-17.92,15.95,64.4,6.93
570,Goshāinganj,71,IN,1602134970,51,26.58,82.38,87.24,4.05
571,San Vicente,13,AR,1602134733,90,-26.62,-54.13,61.99,3.13
572,Camacha,75,PT,1602134502,88,33.08,-16.33,69.8,4.7
573,Sur,0,OM,1602134971,29,22.57,59.53,89.1,2.24
574,Kirakira,69,SB,1602134971,78,-10.45,161.92,82.17,8.95
575,Redmond,20,US,1602134471,94,47.67,-122.12,59.0,2.71
576,Kashgar,20,CN,1602134511,18,39.45,75.98,59.0,8.95
577,Haverfordwest,100,GB,1602134972,100,51.8,-4.97,59.0,33.33
578,Oranjestad,20,AW,1602134965,79,12.52,-70.03,84.2,12.75
579,Tashla,21,RU,1602134972,71,51.77,52.74,48.79,11.72
580,Aykhal,90,RU,1602134972,92,66.0,111.5,24.8,8.95
581,Craig,1,US,1602134972,47,40.52,-107.55,50.0,3.36
582,Ziro,40,IN,1602134764,83,27.63,93.83,84.2,3.36
583,Bendigo,100,AU,1602134973,75,-36.77,144.28,55.99,5.99
584,Sijunjung,100,ID,1602134973,77,-0.69,100.95,78.67,2.8
585,Atambua,98,ID,1602134780,59,-9.11,124.89,84.85,2.01
586,Yurla,100,RU,1602134973,87,59.33,54.32,38.61,7.72
